구별,동별,사업장명,소재지도로명주소,위도,경도,지역명
분당구,구미동,분당필동물병원,경기도 성남시 분당구 금곡로15번길 1 (구미동),37.3438379,127.1107543,분당구 구미동
분당구,구미동,현대 동물병원,"경기도 성남시 분당구 성남대로 30, 111호 (구미동, 동아그린프라자)",37.3383428,127.1094354,분당구 구미동
분당구,구미동,24시분당리더스동물의료원,"경기도 성남시 분당구 성남대로 45, 계영빌딩 202, 203호 (구미동)",37.3400118,127.1083921,분당구 구미동
분당구,구미동,한국동물선진의료연구소(KASMINE) 동물심혈관신장센터,"경기도 성남시 분당구 미금로 43, 정운빌딩 1층 (구미동)",37.3370941,127.115965,분당구 구미동
분당구,구미동,나라 동물병원,"경기도 성남시 분당구 미금로 48, 오성프라자 113호 (구미동)",37.3378333,127.1165434,분당구 구미동
분당구,구미동,뉴욕동물병원,"경기도 성남시 분당구 성남대로 52, 그랜드프라자 102호 (구미동)",37.3404299,127.109348,분당구 구미동
분당구,구미동,365동물병원 분당점,"경기도 성남시 분당구 미금일로90번길 32, 125호 (구미동)",37.3489258,127.1104646,분당구 구미동
분당구,금곡동,에버펫동물병원,"경기도 성남시 분당구 성남대로 165, 118호 (금곡동)",37.3503821,127.1077536,분당구 금곡동
분당구,금곡동,굿모닝펫 동물병원,"경기도 성남시 분당구 정자일로 55, 108-110호 (금곡동, 분당두산위브아파트)",37.3552113,127.1052495,분당구 금곡동
분당구,금곡동,엔젤동물병원,"경기도 성남시 분당구 성남대로171번길 17, 씨티밸리 101호 (금곡동)",37.3511376,127.1068064,분당구 금곡동
분당구,금곡동,동물병원루니,"경기도 성남시 분당구 미금로 251, 112·201·202·203호 (금곡동, 청솔마을성원아파트)",37.3526466,127.110296,분당구 금곡동
분당구,대장동,판교포레동물병원,"경기도 성남시 분당구 판교대장로6길 10,  동 207,208,209,210호 (대장동)",37.3643632,127.0679194,분당구 대장동
분당구,대장동,소랑동물병원,"경기도 성남시 분당구 판교대장로7길 16, 1층 102호 (대장동, 힐스테이트 판교 엘포레 A6BL)",37.3738839,127.0681773,분당구 대장동
분당구,백현동,AtoZ동물병원,"경기도 성남시 분당구 판교역로 145, 라스트리트2동 2층 213호 (백현동, 알파리움2단지)",37.3938154,127.1083768,분당구 백현동
분당구,백현동,365동판교동물병원,"경기도 성남시 분당구 판교역로14번길 20, (주)코레드디엔씨 2층 201호 (백현동)",37.3854765,127.1114388,분당구 백현동
분당구,백현동,백현 동물병원,"경기도 성남시 분당구 동판교로52번길 6, 외 1필지(분당구 동판교로52번길 8) 1층 (백현동)",37.3874986,127.1142145,분당구 백현동
분당구,백현동,힐링힐스 동물 치과병원,경기도 성남시 분당구 동판교로52번길 9-11 (백현동),37.3873797,127.1154736,분당구 백현동
분당구,백현동,판교종합 동물병원,경기도 성남시 분당구 동판교로 122 (백현동),37.3931648,127.1188777,분당구 백현동
분당구,분당동,활기찬동물병원,"경기도 성남시 분당구 장안로 39, 한일빌딩 102-2호 (분당동)",37.3704363,127.1434492,분당구 분당동
분당구,삼평동,판교 행복한 동물병원,"경기도 성남시 분당구 동판교로 226, 204·205·206호 (삼평동, 봇들마을4단지아파트)",37.40413230000001,127.117676,분당구 삼평동
분당구,서현동,서울종합동물병원,경기도 성남시 분당구 불정로 381 (서현동),37.3745816,127.136712,분당구 서현동
분당구,서현동,우성동물병원,"경기도 성남시 분당구 돌마로 481, 분당우성프라자 (서현동)",37.3777365,127.1328726,분당구 서현동
분당구,서현동,Dr. 오즈 동물병원,"경기도 성남시 분당구 분당로263번길 39, 109호 (서현동, 레이디파크)",37.3720259,127.1401585,분당구 서현동
분당구,서현동,해마루 동물병원,경기도 성남시 분당구 황새울로319번길 8-6 (서현동),37.38570139999999,127.1211025,분당구 서현동
분당구,서현동,미래동물의료센터,"경기도 성남시 분당구 서현로255번길 1, 1층 (서현동)",37.3845759,127.1296822,분당구 서현동
분당구,서현동,아프리카 동물병원,"경기도 성남시 분당구 서현로 170, 풍림아이원플러스 108호 (서현동)",37.3889821,127.1225406,분당구 서현동
분당구,서현동,분당중앙 동물병원,"경기도 성남시 분당구 중앙공원로39번길 49, 서현 지엔느 108호 (서현동)",37.383782,127.1247659,분당구 서현동
분당구,서현동,서현동물병원,"경기도 성남시 분당구 중앙공원로31번길 42, 서현파크플라자 1층 142호 (서현동)",37.3830904,127.1254883,분당구 서현동
분당구,수내동,서공동물병원,"경기도 성남시 분당구 내정로 170, 동신파크빌딩 204호 (수내동)",37.3734849,127.1196806,분당구 수내동
분당구,수내동,이레외과동물병원,"경기도 성남시 분당구 백현로101번길 11, 동현프라자 205호 (수내동)",37.3771437,127.1120174,분당구 수내동
분당구,수내동,펫 앤 쉘터 동물병원,"경기도 성남시 분당구 불정로 266, 2층 (수내동, 그린플라자)",37.3670982,127.1276731,분당구 수내동
분당구,수내동,금산헤르쯔 동물병원,"경기도 성남시 분당구 돌마로 364, 현대제일상가 21호 (수내동)",37.36997849999999,127.1236449,분당구 수내동
분당구,수내동,남현우동물병원,"경기도 성남시 분당구 내정로173번길 11, 603동 139호 (수내동, 양지마을한양아파트)",37.3747755,127.1184461,분당구 수내동
분당구,수내동,분당 피엘 동물피부클리닉,"경기도 성남시 분당구 수내로 39, 223호 (수내동, 분당지웰푸르지오)",37.3815218,127.1175406,분당구 수내동
분당구,야탑동,젠(Gen)동물병원,"경기도 성남시 분당구 양현로 479, 2층 (야탑동)",37.4166363,127.135411,분당구 야탑동
분당구,야탑동,아이펫동물병원,"경기도 성남시 분당구 장미로 78, 시그마3 105호 (야탑동)",37.4135078,127.1295646,분당구 야탑동
분당구,야탑동,야탑서울동물병원,"경기도 성남시 분당구 벌말로 33, 206호 (야탑동, 일심조합상가)",37.4110144,127.1379074,분당구 야탑동
분당구,야탑동,분당고은 동물병원,"경기도 성남시 분당구 매화로 40 (야탑동, 동륜빌딩)",37.4111556,127.1341749,분당구 야탑동
분당구,야탑동,분당24시동물의료센터,"경기도 성남시 분당구 야탑로 24, 101호 (야탑동, 덕인빌딩)",37.4085396,127.121617,분당구 야탑동
분당구,야탑동,딜리동물병원,"경기도 성남시 분당구 성남대로 884-9, 101호 (야탑동, 라비앙오피스텔)",37.3989518,127.1555214,분당구 야탑동
분당구,야탑동,우리들 동물병원,"경기도 성남시 분당구 야탑로 103, 노블리치2 오피스텔 2층 206호 (야탑동)",37.4101358,127.1301618,분당구 야탑동
분당구,운중동,어니스트 동물병원,"경기도 성남시 분당구 운중로113번길 12-5, 1층 (운중동, MM하우스)",37.3927815,127.0762833,분당구 운중동
분당구,운중동,라엘동물의료센터,"경기도 성남시 분당구 운중로 172, 트윈플라자-1 101,102호 (운중동)",37.3910153,127.0823084,분당구 운중동
분당구,운중동,장재영외과동물병원,"경기도 성남시 분당구 운중로 142, 판교메디칼타워 2층 (운중동)",37.3912242,127.0788323,분당구 운중동
분당구,운중동,고양이병원 소설,"경기도 성남시 분당구 운중로146번길 31-2, 1층 (운중동)",37.3902109,127.0821488,분당구 운중동
분당구,운중동,수 동물병원,"경기도 성남시 분당구 운중로 135, 101·102호 (운중동, 더원스퀘어)",37.3919412,127.0781134,분당구 운중동
분당구,이매동,분당동물병원,"경기도 성남시 분당구 양현로 126, 미림프라자 104호 (이매동)",37.3950306,127.1255156,분당구 이매동
분당구,이매동,분당우리동물의료센터,"경기도 성남시 분당구 양현로94번길 19, 새남서울조합상가 202호 (이매동)",37.3911639,127.1262183,분당구 이매동
분당구,이매동,수아동물병원,"경기도 성남시 분당구 판교로 446, 108호 (이매동, 그린프라자)",37.3993873,127.1272357,분당구 이매동
분당구,이매동,이매 동물병원,"경기도 성남시 분당구 성남대로779번길 17, 1층 (이매동, 포티스빌딩)",37.3988996,127.1264152,분당구 이매동
분당구,이매동,아름동물병원,"경기도 성남시 분당구 성남대로779번길 52, 신흥코아 102호 (이매동)",37.3995014,127.122802,분당구 이매동
분당구,정자동,하온동물의료센터,"경기도 성남시 분당구 느티로 27, 하나플라자빌딩 2층 203호 (정자동)",37.3687998,127.1074961,분당구 정자동
분당구,정자동,분당정자 동물병원,"경기도 성남시 분당구 정자일로 120, 119호 (정자동, 아데나루체 상가 )",37.3608517,127.1065438,분당구 정자동
분당구,정자동,더클래스동물메디컬센터,"경기도 성남시 분당구 성남대로 275, A동 101-1호 (정자동, 삼성아데나팰리스아파트)",37.3605623,127.1077127,분당구 정자동
분당구,정자동,빌리브동물병원,"경기도 성남시 분당구 성남대로 449, 111,112,113호 (정자동, 로얄팰리스)",37.3751055,127.110716,분당구 정자동
분당구,정자동,그레이트 동물병원,"경기도 성남시 분당구 정자로 80, 1층 (정자동, 정자프라자)",37.3631541,127.1137876,분당구 정자동
분당구,정자동,분당데이지동물병원,"경기도 성남시 분당구 내정로 58, 스포라이프 스포츠센타 107호 (정자동)",37.3653863,127.1151963,분당구 정자동
분당구,정자동,우리동물병원,경기도 성남시 분당구 백현로156번길 17-2 (정자동),37.3713126,127.1139713,분당구 정자동
분당구,정자동,정자현대동물병원,"경기도 성남시 분당구 성남대로331번길 3-13, 대명제스트빌딩 5층 (정자동)",37.3643782,127.1076849,분당구 정자동
분당구,정자동,세인트존스동물병원,"경기도 성남시 분당구 정자일로 197, 101호 (정자동, 푸르지오씨티 2차)",37.3680421,127.1055286,분당구 정자동
분당구,정자동,상록 동물병원,경기도 성남시 분당구 정자로 78 (정자동),37.3631524,127.1135101,분당구 정자동
분당구,정자동,분당파크뷰 동물병원,"경기도 성남시 분당구 정자일로 248, 112호 (정자동, 파크뷰상가)",37.3748038,127.106901,분당구 정자동
분당구,정자동,24시 폴 동물병원,"경기도 성남시 분당구 성남대로 385, 102호 (정자동, 분당클리닉빌딩)",37.3705055,127.1074624,분당구 정자동
분당구,정자동,정자프라임동물병원,"경기도 성남시 분당구 내정로 58, 스포라이프 스포츠센타 111호 (정자동)",37.3653863,127.1151963,분당구 정자동
분당구,정자동,굿데이동물병원,"경기도 성남시 분당구 불곡로 4 (정자동, 리더스프라자)",37.3594073,127.1229441,분당구 정자동
분당구,정자동,웰리스 클리닉,경기도 성남시 분당구 불정로 134 (정자동),37.3588136,127.1197905,분당구 정자동
분당구,정자동,분당다원동물병원,"경기도 성남시 분당구 정자일로 100, 116호 (정자동, 미켈란쉐르빌)",37.3590625,127.1070739,분당구 정자동
분당구,정자동,한별피그크리닉,"경기도 성남시 분당구 정자일로213번길 19, 201동 208호 (정자동, 아이파크분당2)",37.3707845,127.1048515,분당구 정자동
분당구,판교동,이진수동물병원,"경기도 성남시 분당구 운중로243번길 3-6, 1층 (판교동)",37.3907453,127.0793821,분당구 판교동
분당구,판교동,동물병원 돌봄,"경기도 성남시 분당구 서판교로 160, 101호 (판교동, 스타식스밸리)",37.400335,127.0949906,분당구 판교동
분당구,판교동,메르시 동물병원,"경기도 성남시 분당구 운중로 255, 티에스로드2 201호 (판교동)",37.3895073,127.0914861,분당구 판교동
분당구,판교동,정원 양한방동물병원,"경기도 성남시 분당구 운중로 233, 201호 (판교동,한솔플라자)",37.3900395,127.0889606,분당구 판교동
분당구,판교동,판교 P&P 동물병원,"경기도 성남시 분당구 서판교로 36, 104호 (판교동)",37.3899673,127.0979066,분당구 판교동
수정구,고등동,고등동물병원,"경기도 성남시 수정구 고등로1길 6-4, 101호 (고등동)",37.4293478,127.0945866,수정구 고등동
수정구,단대동,금광동물병원,경기도 성남시 수정구 산성대로 431 (단대동),37.4549348,127.1572993,수정구 단대동
수정구,복정동,최재호 한방동물병원,경기도 성남시 수정구 복정로 129 (복정동),37.4646365,127.1268871,수정구 복정동
수정구,복정동,이플동물병원,경기도 성남시 수정구 복정로 35 (복정동),37.4561571,127.1271477,수정구 복정동
수정구,수진동,태평역 동물병원,"경기도 성남시 수정구 성남대로 1222, 예농빌딩 1층 (수진동)",37.4387753,127.1283196,수정구 수진동
수정구,수진동,서울동물병원,"경기도 성남시 수정구 수정로 110, 1층 (수진동)",37.4369688,127.1286326,수정구 수진동
수정구,수진동,성남 시립동물병원,"경기도 성남시 수정구 탄리로 59, 공영주차장(수정커뮤니티센터) 지하1층 B103-B106호 (수진동)",37.4410282,127.1361005,수정구 수진동
수정구,시흥동,윤성진 안과/외과 동물병원,경기도 성남시 수정구 설개로21번길 7 (시흥동),37.4211736,127.1071144,수정구 시흥동
수정구,신흥동,스타동물의료센터,"경기도 성남시 수정구 수정로 287, 2층 (신흥동)",37.4503477,127.1464428,수정구 신흥동
수정구,신흥동,가나동물병원,"경기도 성남시 수정구 수정로 160 (신흥동, 신흥상가)",37.440956,127.147509,수정구 신흥동
수정구,신흥동,동물병원 더 하임,"경기도 성남시 수정구 수정로 273, 수정빌딩 1층 (신흥동)",37.449191,127.145651,수정구 신흥동
수정구,신흥동,휴동물의료센터,"경기도 성남시 수정구 산성대로 309, 2층 (신흥동, 고려빌딩)",37.4425484,127.1509728,수정구 신흥동
수정구,신흥동,모아 동물병원,"경기도 성남시 수정구 수정로 291, 포레스티아 서문상가 1층 101호 (신흥동)",37.4482777,127.1439458,수정구 신흥동
수정구,신흥동,초이종합동물병원,경기도 성남시 수정구 시민로 159 (신흥동),37.4423255,127.1430507,수정구 신흥동
수정구,신흥동,신흥동물병원,"경기도 성남시 수정구 수정로 226, 창진빌딩 (신흥동)",37.44684910000001,127.146461,수정구 신흥동
수정구,창곡동,위례중앙동물의료센터,"경기도 성남시 수정구 위례광장로 104, 위례 한화 오벨리스크 센트럴스퀘어 (창곡동)",37.4730447,127.1412575,수정구 창곡동
수정구,창곡동,365동물병원위례점,"경기도 성남시 수정구 위례동로 153, 에이플타워 205호 (창곡동)",37.4734979,127.149977,수정구 창곡동
수정구,창곡동,위례 바른 동물의료센터,"경기도 성남시 수정구 위례광장로 310, 우성트램타워 A동 201호 (창곡동)",37.4727407,127.1426931,수정구 창곡동
수정구,창곡동,위례나무동물병원,"경기도 성남시 수정구 위례동로 147, 106호 (창곡동, 위례건아타워)",37.4731149,127.1501302,수정구 창곡동
수정구,창곡동,그레이동물의료센터,"경기도 성남시 수정구 위례광장로 320, 214호 (창곡동, 아이에스센트럴타워)",37.4722564,127.142663,수정구 창곡동
수정구,창곡동,아이유동물메디컬센터,"경기도 성남시 수정구 위례광장로 5, 위례우남역아이파크 3층 301·302·317호 (창곡동)",37.4650515,127.14163,수정구 창곡동
수정구,창곡동,스칸디동물병원,"경기도 성남시 수정구 위례광장로 70 (창곡동, 아트리버푸르지오)",37.4704028,127.1412722,수정구 창곡동
수정구,태평동,시드니동물병원,경기도 성남시 수정구 태평로 10 (태평동),37.4478323,127.1280172,수정구 태평동
수정구,태평동,중앙동물병원,경기도 성남시 수정구 수정로 139 (태평동),37.45081709999999,127.1394678,수정구 태평동
수정구,태평동,건국 동물병원,"경기도 성남시 수정구 수정로 131, 109호 (태평동, 낙원스카이뷰)",37.4420251,127.1347078,수정구 태평동
중원구,금광동,지음동물의료센터,"경기도 성남시 중원구 광명로 321, 정성빌딩 1층 (금광동)",37.4453902,127.1614605,중원구 금광동
중원구,금광동,서울동물병원,"경기도 성남시 중원구 산성대로 388-1, 1층 (금광동)",37.4465822,127.1580989,중원구 금광동
중원구,금광동,강남동물병원,경기도 성남시 중원구 광명로 341 (금광동),37.4444981,127.1605858,중원구 금광동
중원구,금광동,에코바이오,경기도 성남시 중원구 산성대로420번길 3 (금광동),37.4493237,127.1593676,중원구 금광동
중원구,금광동,해오름동물병원,"경기도 성남시 중원구 희망로 402, 지하1층 (금광동)",37.4412735,127.1601767,중원구 금광동
중원구,도촌동,도촌 동물병원,"경기도 성남시 중원구 도촌남로 37, 도촌프라자 109호 (도촌동)",37.4146235,127.1516334,중원구 도촌동
중원구,상대원동,정동물병원,"경기도 성남시 중원구 금상로 72, 1층 (상대원동)",37.4411827,127.1636759,중원구 상대원동
중원구,상대원동,상대원 동물병원,"경기도 성남시 중원구 희망로 350, 1층 (상대원동)",37.4369379,127.1583354,중원구 상대원동
중원구,상대원동,한국동물병원,"경기도 성남시 중원구 희망로 360, 10호 (상대원동)",37.4378134,127.1583847,중원구 상대원동
중원구,성남동,모란동물병원,"경기도 성남시 중원구 성남대로 1126, 106호 (성남동, 매가프라자)",37.4303456,127.1298975,중원구 성남동
중원구,성남동,래온동물병원,"경기도 성남시 중원구 광명로 89, 성남 센트럴 푸르지오 시티 1층 134,135호 (성남동)",37.4354761,127.1388056,중원구 성남동
중원구,성남동,조은동물병원,"경기도 성남시 중원구 광명로142번길 3, 미래타운 B101호 (성남동)",37.4375023,127.1441765,중원구 성남동
중원구,여수동,분당밝은아이동물병원,"경기도 성남시 중원구 성남대로997번길 51-16, 1층 (여수동)",37.4170619,127.1259461,중원구 여수동
중원구,여수동,우주동물병원,"경기도 성남시 중원구 양현로405번길 5, 신야탑푸르지오시티 1 101,102호 (여수동)",37.4172807,127.1268781,중원구 여수동
중원구,은행동,25시 동물병원,경기도 성남시 중원구 산성대로504번길 1 (은행동),37.456038,127.1629569,중원구 은행동
중원구,은행동,동물병원 Dr.정,"경기도 성남시 중원구 산성대로 498, 1층 102호 (은행동)",37.4601119,127.1721462,중원구 은행동
중원구,중앙동,세이브 동물병원,경기도 성남시 중원구 산성대로 336-3 (중앙동),37.4430561,127.1538978,중원구 중앙동
중원구,중앙동,더편한동물병원,"경기도 성남시 중원구 광명로 176, 상가동 2층 216호 (중앙동, 신흥역 하늘채 랜더스원 1단지)",37.4379993,127.1470338,중원구 중앙동
중원구,하대원동,서현 동물병원,"경기도 성남시 중원구 성남대로 1110, 1층 (하대원동)",37.428823,127.1298916,중원구 하대원동
중원구,하대원동,성남동물병원,"경기도 성남시 중원구 둔촌대로 243, 3호 (하대원동)",37.4281472,127.1357062,중원구 하대원동
